{
    "outfits": [
        {
            "id": "A",
            "name": "Dân tộc Tày",
            "hidden_img": "https://res.cloudinary.com/dnax1t7m4/image/upload/v1694792335/ueh/A_dxuien.png",
            "full_img": ""
        },
        {
            "id": "B",
            "name": "Dân tộc Thái",
            "hidden_img": "https://res.cloudinary.com/dnax1t7m4/image/upload/v1694792333/ueh/B_izfuyv.png",
            "full_img": ""
        },
        {
            "id": "C",
            "name": "Dân tộc Mường",
            "hidden_img": "https://res.cloudinary.com/dnax1t7m4/image/upload/v1694792332/ueh/C_ujejmt.png",
            "full_img": ""
        },
        {
            "id": "E",
            "name": "Dân tộc Mông",
            "hidden_img": "https://res.cloudinary.com/dnax1t7m4/image/upload/v1694792333/ueh/E_hbvubb.png",
            "full_img": ""
        },
        {
            "id": "G",
            "name": "Dân tộc Hoa",
            "hidden_img": "https://res.cloudinary.com/dnax1t7m4/image/upload/v1694792333/ueh/G_qop7hi.png",
            "full_img": ""
        },
        {
            "id": "H",
            "name": "Dân tộc Dao",
            "hidden_img": "https://res.cloudinary.com/dnax1t7m4/image/upload/v1694792334/ueh/H_qbszig.png",
            "full_img": ""
        }
    ],
    "items": [
        {
            "id": "A1",
            "img": "https://res.cloudinary.com/dnax1t7m4/image/upload/v1694791106/ueh/A1_ealctc.png",
            "name": "Khăn đội đầu trang phục Tày",
            "yield_img": "https://res.cloudinary.com/dnax1t7m4/image/upload/v1694844936/ueh/a1_kpuy69.png",
            "lat": 10.761004060772583,
            "lng": 106.66829784288188
        },
        {
            "id": "A2",
            "img": "https://res.cloudinary.com/dnax1t7m4/image/upload/v1694791104/ueh/A2_eh2n28.png",
            "name": "Áo trang phục Tày",
            "yield_img": "https://res.cloudinary.com/dnax1t7m4/image/upload/v1694844937/ueh/a2_seq24j.png",
            "lat": 10.760964471458822,
            "lng": 106.66839065606478
        },
        {
            "id": "A3",
            "img": "https://res.cloudinary.com/dnax1t7m4/image/upload/v1694791104/ueh/A3_haxw4i.png",
            "name": "Váy trang phục Tày",
            "yield_img": "https://res.cloudinary.com/dnax1t7m4/image/upload/v1694844937/ueh/a3_idbyiu.png",
            "lat": 10.76087727964402,
            "lng": 106.66808715642105
        },
        {
            "id": "B1",
            "img": "https://res.cloudinary.com/dnax1t7m4/image/upload/v1694791104/ueh/B1_kf2lz8.png",
            "name": "Khăn Pieu trang phục Thái",
            "yield_img": "https://res.cloudinary.com/dnax1t7m4/image/upload/v1694844938/ueh/b1_genprn.png",
            "lat": 10.760932955226643,
            "lng": 106.66817964943613
        },
        {
            "id": "B2",
            "img": "https://res.cloudinary.com/dnax1t7m4/image/upload/v1694791105/ueh/B2_bcn0iz.png",
            "name": "Áo cóm trang phục Thái",
            "yield_img": "https://res.cloudinary.com/dnax1t7m4/image/upload/v1694844927/ueh/b2_q4nhtw.png",
            "lat": 10.760727685317955,
            "lng": 106.66807726855352
        },
        {
            "id": "B3",
            "img": "https://res.cloudinary.com/dnax1t7m4/image/upload/v1694791104/ueh/B3_dvoizo.png",
            "name": "Váy trang phục Thái",
            "yield_img": "https://res.cloudinary.com/dnax1t7m4/image/upload/v1694844927/ueh/b3_huwyxl.png",
            "lat": 10.76087727964914,
            "lng": 106.66808715642306
        },
        {
            "id": "C1",
            "img": "https://res.cloudinary.com/dnax1t7m4/image/upload/v1694791105/ueh/C1_v2e3ns.png",
            "name": "Khăn đội đầu trang phục Mường",
            "yield_img": "https://res.cloudinary.com/dnax1t7m4/image/upload/v1694844927/ueh/c1_poagih.png",
            "lat": 10.76086862544615,
            "lng": 106.66818483021724
        },
        {
            "id": "C2",
            "img": "https://res.cloudinary.com/dnax1t7m4/image/upload/v1694791105/ueh/C2_t2iggn.png",
            "name": "Áo pắn trang phục Mường",
            "yield_img": "https://res.cloudinary.com/dnax1t7m4/image/upload/v1694844927/ueh/c2_ont2zq.png",
            "lat": 10.761040395522063,
            "lng": 106.66833826206054
        },
        {
            "id": "C3",
            "img": "https://res.cloudinary.com/dnax1t7m4/image/upload/v1694791105/ueh/C3_limrdp.png",
            "name": "Váy trang phục Mường",
            "yield_img": "https://res.cloudinary.com/dnax1t7m4/image/upload/v1694844927/ueh/c3_y5izva.png",
            "lat": 10.760778923755556,
            "lng": 106.66808446096181
        },
        {
            "id": "E1",
            "img": "https://res.cloudinary.com/dnax1t7m4/image/upload/v1694791105/ueh/E1_s6p0yw.png",
            "name": "Khăn đội đầu trang phục Mông",
            "yield_img": "https://res.cloudinary.com/dnax1t7m4/image/upload/v1694844929/ueh/e1_rdg1yv.png",
            "lat": 10.76087727964406,
            "lng": 106.66808715642109
        },
        {
            "id": "E2",
            "img": "https://res.cloudinary.com/dnax1t7m4/image/upload/v1694791106/ueh/E2_q79jzl.png",
            "name": "Áo tứ thân trang phục Mông",
            "yield_img": "https://res.cloudinary.com/dnax1t7m4/image/upload/v1694844928/ueh/e2_yzmxpv.png",
            "lat": 10.760967372968198,
            "lng": 106.66837750047266
        },
        {
            "id": "E3",
            "img": "https://res.cloudinary.com/dnax1t7m4/image/upload/v1694791106/ueh/E3_h3ba4d.png",
            "name": "Váy trang phục Mông",
            "yield_img": "https://res.cloudinary.com/dnax1t7m4/image/upload/v1694844928/ueh/e3_l36fi7.png",
            "lat": 10.76088127663849,
            "lng": 106.668264475091
        },
        {
            "id": "G1",
            "img": "https://res.cloudinary.com/dnax1t7m4/image/upload/v1694791108/ueh/G1_semvky.png",
            "name": "Sườn xám trang phục Hoa",
            "yield_img": "https://res.cloudinary.com/dnax1t7m4/image/upload/v1694844932/ueh/g1_l9pn73.png",
            "lat": 10.760769585016805,
            "lng": 106.66804094386161
        },
        {
            "id": "G2",
            "img": "https://res.cloudinary.com/dnax1t7m4/image/upload/v1694791108/ueh/G2_f1yunp.png",
            "name": "Trăm cài trang phục Hoa",
            "yield_img": "https://res.cloudinary.com/dnax1t7m4/image/upload/v1694844933/ueh/g2_jcjj9i.png",
            "lat": 10.760917664966355,
            "lng": 106.6680256893349
        },
        {
            "id": "G3",
            "img": "https://res.cloudinary.com/dnax1t7m4/image/upload/v1694791112/ueh/G3_g3aq7z.png",
            "name": "Giày thêu trang phục Hoa",
            "yield_img": "https://res.cloudinary.com/dnax1t7m4/image/upload/v1694844933/ueh/g3_rka9ha.png",
            "lat": 10.760945055950327,
            "lng": 106.66818750045707
        },
        {
            "id": "H1",
            "img": "https://res.cloudinary.com/dnax1t7m4/image/upload/v1694791109/ueh/H1_yjyulh.png",
            "name": "Khăn vấn đầu trang phục Dao",
            "yield_img": "https://res.cloudinary.com/dnax1t7m4/image/upload/v1694844933/ueh/h1_ficwoq.png",
            "lat": 10.761100020312524,
            "lng": 106.66858879121992
        },
        {
            "id": "H2",
            "img": "https://res.cloudinary.com/dnax1t7m4/image/upload/v1694791109/ueh/H2_wwu9ht.png",
            "name": "Áo trang phục Dao",
            "yield_img": "https://res.cloudinary.com/dnax1t7m4/image/upload/v1694844934/ueh/H2_pmfrmm.png",
            "lat": 10.760940097182129,
            "lng": 106.66828389360839
        },
        {
            "id": "H3",
            "img": "https://res.cloudinary.com/dnax1t7m4/image/upload/v1694791110/ueh/H3_erdlrw.png",
            "name": "Quần trang phục Dao",
            "yield_img": "https://res.cloudinary.com/dnax1t7m4/image/upload/v1694844936/ueh/h3_h1dk36.png",
            "lat": 10.76086838991829,
            "lng": 106.66844879096627
        },

        {
            "id": "Z1",
            "img": "",
            "name": "Voucher từ Seoul Academy",
            "yield_img": "https://res.cloudinary.com/dnax1t7m4/image/upload/v1694847697/ueh/Z1_guueay.png",
            "lat": 10.760821953701155,
            "lng": 106.66811431086407
        },
        {
            "id": "Z2",
            "img": "",
            "name": "Voucher từ Ấn tượng đẹp",
            "yield_img": "https://res.cloudinary.com/dnax1t7m4/image/upload/v1694847696/ueh/Z2_daho0a.jpg",
            "lat": 10.76083929298541,
            "lng": 106.66778511762543
        },
        {
            "id": "Z3",
            "img": "",
            "name": "Voucher từ ZIM",
            "yield_img": "https://res.cloudinary.com/dnax1t7m4/image/upload/v1694847696/ueh/Z3_l8i3x4.png",
            "lat": 10.76087730872211,
            "lng": 106.66805701835953
        },
        {
            "id": "Z4",
            "img": "",
            "name": "Voucher từ Seoul Academy",
            "yield_img": "https://res.cloudinary.com/dnax1t7m4/image/upload/v1694847697/ueh/Z1_guueay.png",
            "lat": 10.760723115674041,
            "lng": 106.66798476787385
        },
        {
            "id": "Z5",
            "img": "",
            "name": "Voucher từ Ấn tượng đẹp",
            "yield_img": "https://res.cloudinary.com/dnax1t7m4/image/upload/v1694847696/ueh/Z2_daho0a.jpg",
            "lat": 10.760883304468438,
            "lng": 106.66786646784168
        },
        {
            "id": "Z6",
            "img": "",
            "name": "Voucher từ ZIM",
            "yield_img": "https://res.cloudinary.com/dnax1t7m4/image/upload/v1694847696/ueh/Z3_l8i3x4.png",
            "lat": 10.760845199025265,
            "lng": 106.66790346754264
        },
        {
            "id": "Z7",
            "img": "",
            "name": "Voucher từ Seoul Academy",
            "yield_img": "https://res.cloudinary.com/dnax1t7m4/image/upload/v1694847697/ueh/Z1_guueay.png",
            "lat": 10.761013194702125,
            "lng": 106.66843912120474
        },
        {
            "id": "Z8",
            "img": "",
            "name": "Voucher từ Ấn tượng đẹp",
            "yield_img": "https://res.cloudinary.com/dnax1t7m4/image/upload/v1694847696/ueh/Z2_daho0a.jpg",
            "lat": 10.760942408362377,
            "lng": 106.66827784945424
        },
        {
            "id": "Z9",
            "img": "",
            "name": "Voucher từ ZIM",
            "yield_img": "https://res.cloudinary.com/dnax1t7m4/image/upload/v1694847696/ueh/Z3_l8i3x4.png",
            "lat": 10.761039124242894,
            "lng": 106.66845356558166
        },
        {
            "id": "Z10",
            "img": "",
            "name": "Voucher từ Seoul Academy",
            "yield_img": "https://res.cloudinary.com/dnax1t7m4/image/upload/v1694847697/ueh/Z1_guueay.png",
            "lat": 10.761004444276285,
            "lng": 106.66836466497746
        },
        {
            "id": "Z11",
            "img": "",
            "name": "Voucher từ Ấn tượng đẹp",
            "yield_img": "https://res.cloudinary.com/dnax1t7m4/image/upload/v1694847696/ueh/Z2_daho0a.jpg",
            "lat": 10.760998016773243,
            "lng": 106.66834423734913
        },
        {
            "id": "Z12",
            "img": "",
            "name": "Voucher từ ZIM",
            "yield_img": "https://res.cloudinary.com/dnax1t7m4/image/upload/v1694847696/ueh/Z3_l8i3x4.png",
            "lat": 10.760988728705094,
            "lng": 106.66827222136344
        },
        {
            "id": "Z13",
            "img": "",
            "name": "Voucher từ Seoul Academy",
            "yield_img": "https://res.cloudinary.com/dnax1t7m4/image/upload/v1694847697/ueh/Z1_guueay.png",
            "lat": 10.761048885069046,
            "lng": 106.66838846385731
        },
        {
            "id": "Z14",
            "img": "",
            "name": "Voucher từ Ấn tượng đẹp",
            "yield_img": "https://res.cloudinary.com/dnax1t7m4/image/upload/v1694847696/ueh/Z2_daho0a.jpg",
            "lat": 10.760988728705094,
            "lng": 106.66827222136344
        },
        {
            "id": "Z15",
            "img": "",
            "name": "Voucher từ ZIM",
            "yield_img": "https://res.cloudinary.com/dnax1t7m4/image/upload/v1694847696/ueh/Z3_l8i3x4.png",
            "lat": 10.76095576408541,
            "lng": 106.66817605249115
        },
        {
            "id": "Z16",
            "img": "",
            "name": "Voucher từ Seoul Academy",
            "yield_img": "https://res.cloudinary.com/dnax1t7m4/image/upload/v1694847697/ueh/Z1_guueay.png",
            "lat": 10.76102044678938,
            "lng": 106.66835558272341
        },
        {
            "id": "Z17",
            "img": "",
            "name": "Voucher từ Ấn tượng đẹp",
            "yield_img": "https://res.cloudinary.com/dnax1t7m4/image/upload/v1694847696/ueh/Z2_daho0a.jpg",
            "lat": 10.760884799275036,
            "lng": 106.66807237982896
        },
        {
            "id": "Z18",
            "img": "",
            "name": "Voucher từ ZIM",
            "yield_img": "https://res.cloudinary.com/dnax1t7m4/image/upload/v1694847696/ueh/Z3_l8i3x4.png",
            "lat": 10.760880399813932,
            "lng": 106.66830726128738
        },
        {
            "id": "Z19",
            "img": "",
            "name": "Voucher từ ZIM",
            "yield_img": "https://res.cloudinary.com/dnax1t7m4/image/upload/v1694847696/ueh/Z3_l8i3x4.png",
            "lat": 10.760911647609966,
            "lng": 106.6680859480383
        },
        {
            "id": "Z20",
            "img": "",
            "name": "Voucher từ Seoul Academy",
            "yield_img": "https://res.cloudinary.com/dnax1t7m4/image/upload/v1694847697/ueh/Z1_guueay.png",
            "lat": 10.76086862544618,
            "lng": 106.66818483021726
        },
        {
            "id": "Z21",
            "img": "",
            "name": "Voucher từ Ấn tượng đẹp",
            "yield_img": "https://res.cloudinary.com/dnax1t7m4/image/upload/v1694847696/ueh/Z2_daho0a.jpg",
            "lat": 10.760880399813932,
            "lng": 106.66830726128738
        },
        {
            "id": "Z22",
            "img": "",
            "name": "Voucher từ ZIM",
            "yield_img": "https://res.cloudinary.com/dnax1t7m4/image/upload/v1694847696/ueh/Z3_l8i3x4.png",
            "lat": 10.76086862544618,
            "lng": 106.66818483021726
        }
    ]
}